City_ID,City,Lat,Lng,Max Temp,Humidity,Cloudiness,Wind Speed,Country,CityDate,Temp (C)
0,Yellowknife,62.46,-114.35,286.15,93,90,8.2,CA,1594738261,13.0
1,Albany,42.6,-73.97,298.15,54,0,2.97,US,1594738350,25.0
2,Jishou,28.32,109.72,298.28,91,100,1.53,CN,1594738602,25.129999999999995
3,Ushuaia,-54.8,-68.3,272.15,86,40,1.5,AR,1594738407,-1.0
4,Port Elizabeth,-33.92,25.57,282.15,87,75,6.2,ZA,1594738414,9.0
5,Provideniya,64.38,-173.3,280.35,93,100,3.02,RU,1594738414,7.2000000000000455
6,Areosa,41.72,-8.86,303.71,44,16,5.7,PT,1594738602,30.560000000000002
7,Talnakh,69.49,88.4,283.15,93,75,3.0,RU,1594738419,10.0
8,Minggang,32.46,114.05,293.88,96,100,3.12,CN,1594738602,20.730000000000018
9,Ambulu,-8.35,113.61,296.86,87,0,2.13,ID,1594738602,23.710000000000036
10,Avarua,-21.21,-159.78,294.15,60,1,2.6,CK,1594738409,21.0
11,Jamestown,42.1,-79.24,293.71,77,75,4.6,US,1594738407,20.560000000000002
12,Atuona,-9.8,-139.03,299.5,77,1,8.49,PF,1594738419,26.350000000000023
13,Bredasdorp,-34.53,20.04,287.15,62,5,2.6,ZA,1594738415,14.0
14,Esperance,-33.87,121.9,281.15,81,0,4.1,AU,1594738417,8.0
15,Punta Arenas,-53.15,-70.92,275.15,85,20,6.7,CL,1594738185,2.0
16,Namuac,18.61,121.17,299.54,79,18,2.6,PH,1594738603,26.390000000000043
17,Eydhafushi,5.1,73.07,302.52,74,100,2.5,MV,1594738603,29.370000000000005
18,Hermanus,-34.42,19.23,287.04,62,71,0.89,ZA,1594738415,13.890000000000043
19,Riachão,-7.36,-46.62,305.72,32,94,4.39,BR,1594738603,32.57000000000005
20,East London,-33.02,27.91,286.15,50,69,13.4,ZA,1594738410,13.0
21,Alekseyevskaya,50.29,42.18,299.26,63,83,2.68,RU,1594738603,26.110000000000014
22,Mangai,-4.05,19.53,304.64,42,94,0.52,CD,1594738604,31.49000000000001
23,Aloleng,16.13,119.78,301.57,72,15,1.59,PH,1594738604,28.420000000000016
24,General Roca,-39.03,-67.58,278.61,60,65,2.06,AR,1594738604,5.460000000000036
25,San Patricio,19.22,-104.7,301.15,78,5,3.1,MX,1594738411,28.0
26,Mataura,-46.19,168.86,277.04,83,64,1.34,NZ,1594738408,3.890000000000043
27,Lixouri,38.2,20.43,302.15,58,20,5.7,GR,1594738604,29.0
28,Chimbote,-9.09,-78.58,292.99,72,0,3.64,PE,1594738604,19.840000000000032
29,Cherskiy,68.75,161.3,278.04,74,0,5.13,RU,1594738418,4.890000000000043
30,Busselton,-33.65,115.33,283.71,74,100,4.1,AU,1594738407,10.560000000000002
31,Barrow,71.29,-156.79,274.15,90,90,5.1,US,1594738411,1.0
32,Fort-Shevchenko,44.51,50.26,301.9,71,49,8.46,KZ,1594738605,28.75
33,Fichē,9.8,38.73,289.36,74,35,0.68,ET,1594738605,16.210000000000036
34,Hobart,-42.88,147.33,281.48,81,90,2.6,AU,1594738197,8.330000000000041
35,Isangel,-19.55,169.27,295.49,84,98,1.43,VU,1594738605,22.340000000000032
36,Bluff,-46.6,168.33,277.04,83,50,1.34,NZ,1594738411,3.890000000000043
37,Beringovskiy,63.05,179.32,282.0,96,57,1.02,RU,1594738606,8.850000000000023
38,Nikolskoye,59.7,30.79,292.15,42,74,7.0,RU,1594738416,19.0
39,Rikitea,-23.12,-134.97,295.3,82,100,8.71,PF,1594738407,22.150000000000034
40,Saint Paul Harbor,57.79,-152.41,286.15,66,40,5.1,US,1594738409,13.0
41,Cape Town,-33.93,18.42,287.15,54,40,2.1,ZA,1594738414,14.0
42,Aykhal,66.0,111.5,294.15,46,0,2.0,RU,1594738606,21.0
43,Sitka,57.05,-135.33,286.15,82,90,6.7,US,1594738434,13.0
44,Tiksi,71.69,128.87,277.4,82,26,0.77,RU,1594738437,4.25
45,Ponta Delgada,37.73,-25.67,298.15,61,20,3.1,PT,1594738440,25.0
46,Kaitangata,-46.28,169.85,279.82,87,49,1.34,NZ,1594738416,6.670000000000016
47,Korla,41.76,86.15,299.82,58,48,0.89,CN,1594738430,26.670000000000016
48,Tortolì,39.93,9.66,300.15,51,20,6.2,IT,1594738607,27.0
49,Palana,59.12,159.97,281.6,92,0,3.17,RU,1594738607,8.450000000000045
50,Poum,-20.23,164.02,296.21,78,100,4.2,NC,1594738445,23.060000000000002
51,Faya,18.39,42.45,304.15,14,40,6.2,SA,1594738428,31.0
52,Faanui,-16.48,-151.75,298.68,86,34,9.23,PF,1594738413,25.53000000000003
53,Lebu,-37.62,-73.65,284.68,56,15,1.13,CL,1594738415,11.53000000000003
54,Hilo,19.73,-155.09,296.15,88,90,2.6,US,1594738370,23.0
55,Bambanglipuro,-7.95,110.28,297.76,87,2,2.86,ID,1594738607,24.610000000000014
56,Samaná,19.21,-69.34,303.15,79,75,4.1,DO,1594738607,30.0
57,Nhulunbuy,-12.23,136.77,297.15,78,75,6.7,AU,1594738607,24.0
58,Nikol'sk,53.72,46.07,302.27,60,76,5.51,RU,1594738607,29.120000000000005
59,Ucluelet,48.93,-125.55,285.37,100,40,0.38,CA,1594738432,12.220000000000027
60,Shagonar,51.53,92.8,288.04,90,100,3.12,RU,1594738608,14.890000000000043
61,Chicama,-7.84,-79.15,296.05,58,4,3.04,PE,1594738428,22.900000000000034
62,Vaini,-21.2,-175.2,293.15,88,40,3.6,TO,1594738409,20.0
63,Souillac,-20.52,57.52,294.82,83,11,0.45,MU,1594738423,21.670000000000016
64,Lashio,22.93,97.75,294.06,97,66,0.83,MM,1594738608,20.910000000000025
65,Upernavik,72.79,-56.15,278.3,86,100,7.89,GL,1594738417,5.150000000000034
66,Bereda,43.27,-7.54,295.93,40,74,6.26,ES,1594738608,22.78000000000003
67,Guerrero Negro,27.98,-114.06,296.08,67,0,4.21,MX,1594738409,22.930000000000007
68,Arman',59.7,150.17,284.86,89,71,2.39,RU,1594738608,11.710000000000036
69,Dauriya,49.93,116.87,290.85,79,42,2.06,RU,1594738608,17.700000000000045
70,Banjar,-8.19,114.97,300.15,100,20,4.6,ID,1594738609,27.0
71,Port Blair,11.67,92.75,300.9,80,100,3.53,IN,1594738437,27.75
72,Øksfjord,70.24,22.35,291.15,67,55,4.6,NO,1594738445,18.0
73,Grand Gaube,-20.01,57.66,294.82,83,0,0.45,MU,1594738427,21.670000000000016
74,Codrington,-38.27,141.97,278.56,93,3,2.49,AU,1594738442,5.410000000000025
75,Kahului,20.89,-156.47,297.15,83,90,3.6,US,1594738519,24.0
76,Lüderitz,-26.65,15.16,294.15,30,0,11.8,NA,1594738410,21.0
77,Saint-Philippe,-21.36,55.77,296.15,73,11,1.5,RE,1594738411,23.0
78,Norman Wells,65.28,-126.83,287.15,87,75,1.0,CA,1594738414,14.0
79,Sakakah,29.97,40.21,315.15,8,0,2.1,SA,1594738609,42.0
80,Inírida,3.87,-67.92,301.63,77,3,1.17,CO,1594738609,28.480000000000018
81,Miles City,46.41,-105.84,290.15,51,90,1.5,US,1594738610,17.0
82,Itoman,26.12,127.67,302.15,89,40,4.1,JP,1594738610,29.0
83,Nanortalik,60.14,-45.24,278.58,94,100,1.87,GL,1594738278,5.430000000000007
84,Brandfort,-28.7,26.46,281.15,45,20,7.2,ZA,1594738610,8.0
85,Ferme-Neuve,46.7,-75.45,296.72,50,1,2.77,CA,1594738610,23.57000000000005
86,São João da Barra,-21.64,-41.05,299.15,69,75,7.2,BR,1594738420,26.0
87,Kapaa,22.08,-159.32,298.15,83,75,5.1,US,1594738290,25.0
88,Hay River,60.82,-115.8,284.15,100,90,8.2,CA,1594738610,11.0
89,Cayenne,4.93,-52.33,305.15,55,75,2.6,GF,1594738422,32.0
90,Marion,39.77,-86.16,299.82,64,20,1.5,US,1594738609,26.670000000000016
91,Cantaura,9.31,-64.36,303.33,60,74,4.05,VE,1594738611,30.180000000000007
92,Petrovsk,52.31,45.39,300.55,62,96,3.43,RU,1594738611,27.400000000000034
93,Pirojpur,22.57,89.98,300.79,87,99,3.51,BD,1594738611,27.640000000000043
94,Longyearbyen,78.22,15.64,282.15,66,75,2.1,SJ,1594738419,9.0
95,Arraial do Cabo,-22.97,-42.03,296.15,88,75,5.1,BR,1594738207,23.0
96,Zhigansk,66.77,123.37,288.57,65,8,2.64,RU,1594738296,15.420000000000016
97,Borgarnes,64.54,-21.92,287.59,82,90,5.1,IS,1594738611,14.439999999999998
98,Pemba,-12.97,40.52,299.15,69,75,5.7,MZ,1594738611,26.0
99,Linxia Chengguanzhen,35.6,103.21,290.09,77,3,1.34,CN,1594738611,16.939999999999998
100,Roald,62.58,6.13,289.26,72,75,3.6,NO,1594738451,16.110000000000014
101,Palmer,42.16,-72.33,300.37,61,40,3.1,US,1594738500,27.220000000000027
102,Kendari,-3.94,122.5,296.69,92,30,1.5,ID,1594738612,23.54000000000002
103,Zaysan,47.47,84.87,292.05,40,100,2.69,KZ,1594738612,18.900000000000034
104,Toowoomba,-27.55,151.97,280.15,93,90,3.6,AU,1594738612,7.0
105,Golynki,54.87,31.39,290.91,72,100,4.97,RU,1594738612,17.760000000000048
106,New Norfolk,-42.78,147.06,281.48,82,26,0.83,AU,1594738410,8.330000000000041
107,Chokurdakh,70.63,147.92,276.01,80,20,7.24,RU,1594738407,2.8600000000000136
108,Castro,-24.79,-50.01,293.36,63,13,1.2,BR,1594738412,20.210000000000036
109,Liverpool,53.41,-2.98,288.15,72,75,6.7,GB,1594738612,15.0
110,Batticaloa,7.71,81.69,302.88,69,100,4.85,LK,1594738612,29.730000000000018
111,Port Alfred,-33.59,26.89,286.24,68,99,11.76,ZA,1594738408,13.090000000000032
112,Sinegor'ye,62.08,150.48,288.86,76,8,1.66,RU,1594738612,15.710000000000036
113,Te Anau,-45.42,167.72,276.68,84,88,0.46,NZ,1594738408,3.5300000000000296
114,Vievis,54.77,24.8,294.15,48,40,4.1,LT,1594738612,21.0
115,Ancud,-41.87,-73.82,278.71,100,75,2.1,CL,1594738281,5.560000000000002
116,Amahai,-3.33,128.92,300.93,96,97,3.01,ID,1594738434,27.78000000000003
117,Mount Gambier,-37.83,140.77,278.15,93,0,3.1,AU,1594738429,5.0
118,Pisco,-13.7,-76.22,289.15,87,90,1.0,PE,1594738418,16.0
119,Tasiilaq,65.61,-37.64,281.15,75,75,3.6,GL,1594738417,8.0
120,Coffs Harbour,-30.3,153.13,286.15,62,2,3.6,AU,1594738430,13.0
121,Clyde River,70.47,-68.59,290.15,51,40,4.1,CA,1594738438,17.0
122,Qaanaaq,77.48,-69.36,278.48,72,85,4.15,GL,1594738410,5.330000000000041
123,Yenagoa,4.92,6.26,296.92,90,100,3.63,NG,1594738613,23.77000000000004
124,Biak,-0.91,122.88,297.67,85,33,3.42,ID,1594738613,24.52000000000004
125,Lavrentiya,65.58,-171.0,279.79,85,100,2.99,RU,1594738435,6.640000000000043
126,Borzya,50.38,116.52,291.26,86,4,2.26,RU,1594738613,18.110000000000014
127,Saldanha,-33.01,17.94,288.15,51,19,4.1,ZA,1594738408,15.0
128,Banda Aceh,5.56,95.32,300.5,76,73,1.21,ID,1594738614,27.350000000000023
129,Paracuru,-3.41,-39.03,300.93,65,0,5.81,BR,1594738614,27.78000000000003
130,Coxim,-18.51,-54.76,306.24,31,19,2.93,BR,1594738614,33.09000000000003
131,George Town,5.41,100.34,302.15,83,20,3.1,MY,1594738271,29.0
132,Vostok,46.49,135.88,286.66,100,0,1.48,RU,1594738445,13.510000000000048
133,Pontianak,-0.03,109.33,297.12,92,100,1.99,ID,1594738326,23.970000000000027
134,Bandarbeyla,9.49,50.81,300.71,67,93,13.35,SO,1594738416,27.560000000000002
135,Bulata,9.86,122.4,300.9,76,100,1.51,PH,1594738614,27.75
136,Salym,60.06,71.48,292.61,56,16,1.76,RU,1594738614,19.460000000000036
137,Dikson,73.51,80.55,277.42,95,97,4.88,RU,1594738411,4.270000000000039
138,Eugene,44.05,-123.09,287.04,87,20,1.33,US,1594738559,13.890000000000043
139,Iqaluit,63.75,-68.51,286.15,71,75,3.1,CA,1594738301,13.0
140,Hong Kong,22.29,114.16,303.71,66,21,5.81,HK,1594738226,30.560000000000002
141,Carnarvon,-24.87,113.63,291.15,93,0,5.1,AU,1594738421,18.0
142,Sheregesh,52.92,87.99,289.07,92,43,0.77,RU,1594738417,15.920000000000016
143,Amapá,1.0,-52.0,300.95,78,78,1.37,BR,1594738615,27.80000000000001
144,Bāfq,31.61,55.41,310.17,12,14,4.0,IR,1594738615,37.02000000000004
145,Juneau,58.3,-134.42,284.82,93,90,5.1,US,1594738615,11.670000000000016
146,Port Augusta,-32.5,137.77,278.15,100,0,2.6,AU,1594738615,5.0
147,Geraldton,-28.77,114.6,287.15,87,90,2.6,AU,1594738433,14.0
148,Loreto,22.27,-101.97,293.77,38,2,0.76,MX,1594738615,20.620000000000005
149,Nacala,-14.54,40.67,296.42,73,70,4.36,MZ,1594738616,23.27000000000004
150,Botwood,49.15,-55.35,285.93,84,100,2.24,CA,1594738616,12.78000000000003
151,Cap Malheureux,-19.98,57.61,294.82,83,0,0.45,MU,1594738616,21.670000000000016
152,Necochea,-38.55,-58.74,280.93,77,90,4.02,AR,1594738452,7.78000000000003
153,Āsosa,10.07,34.53,294.34,93,48,1.37,ET,1594738616,21.189999999999998
154,Caluquembe,-13.78,14.68,299.43,14,0,3.44,AO,1594738616,26.28000000000003
155,Bethel,41.37,-73.41,298.15,60,1,5.1,US,1594738427,25.0
156,Thinadhoo,0.53,72.93,302.82,66,37,1.8,MV,1594738617,29.670000000000016
157,Mahébourg,-20.41,57.7,294.82,83,7,0.45,MU,1594738421,21.670000000000016
158,Constitución,-35.33,-72.42,287.11,63,0,2.21,CL,1594738431,13.960000000000036
159,Saskylakh,71.92,114.08,290.07,75,94,5.11,RU,1594738413,16.920000000000016
160,Labuhan,-6.88,112.21,299.26,81,34,4.03,ID,1594738617,26.110000000000014
161,Acapulco de Juárez,16.86,-99.89,301.15,74,40,2.6,MX,1594738438,28.0
162,Vila,42.03,-8.16,299.82,37,29,5.36,PT,1594738617,26.670000000000016
163,Kilrush,52.64,-9.48,289.15,77,75,8.7,IE,1594738617,16.0
164,Butaritari,3.07,172.79,300.97,73,100,3.11,KI,1594738417,27.82000000000005
165,Cidreira,-30.18,-50.21,283.22,49,0,7.87,BR,1594738413,10.07000000000005
166,Kailua,21.4,-157.74,296.15,100,90,6.73,US,1594738618,23.0
167,Nynäshamn,58.9,17.95,294.15,49,91,3.6,SE,1594738618,21.0
168,Waverly,42.74,-84.62,299.26,60,1,1.5,US,1594738495,26.110000000000014
169,White Rock,49.02,-122.8,288.71,80,3,0.45,CA,1594738618,15.560000000000002
170,Barcelona,41.39,2.16,302.04,54,20,5.7,ES,1594738350,28.890000000000043
171,Torbay,47.67,-52.73,295.37,93,90,4.1,CA,1594738408,22.220000000000027
172,Urengoy,65.97,78.37,284.79,70,100,4.89,RU,1594738618,11.640000000000043
173,Doha,25.29,51.53,310.93,71,0,5.7,QA,1594738618,37.78000000000003
174,Beira,-19.84,34.84,297.15,64,0,4.6,MZ,1594738618,24.0
175,Bucerías,20.75,-105.33,299.15,88,75,2.6,MX,1594738619,26.0
176,Chimoio,-19.12,33.48,300.15,42,0,3.1,MZ,1594738619,27.0
177,Arrondissement de Mont-de-Marsan,44.0,-0.67,299.15,44,72,4.1,FR,1594738619,26.0
178,Mufulira,-12.55,28.24,298.84,23,0,1.76,ZM,1594738446,25.689999999999998
179,Vizinga,61.07,50.1,301.09,63,30,2.1,RU,1594738619,27.939999999999998
180,Švenčionys,55.15,26.17,292.35,55,26,3.09,LT,1594738619,19.200000000000045
181,Lompoc,34.64,-120.46,286.15,93,90,2.1,US,1594738419,13.0
182,Euskirchen,50.67,6.78,295.93,60,75,1.5,DE,1594738620,22.78000000000003
183,Salalah,17.02,54.09,301.15,88,75,4.6,OM,1594738421,28.0
184,Sirte,31.21,16.59,300.77,64,0,5.87,LY,1594738621,27.620000000000005
185,Elizabeth City,36.29,-76.25,304.26,70,1,1.5,US,1594738621,31.110000000000014
186,Port Hardy,50.7,-127.42,282.15,100,75,1.0,CA,1594738415,9.0
187,Kharan,28.58,65.42,309.11,13,2,0.55,PK,1594738621,35.960000000000036
188,Trelew,-43.25,-65.31,277.99,66,53,3.12,AR,1594738621,4.840000000000032
189,Trairi,-3.28,-39.27,303.46,46,0,5.04,BR,1594738622,30.310000000000002
190,Katsuura,35.13,140.3,296.15,94,75,4.6,JP,1594738124,23.0
191,Jalu,29.03,21.55,310.47,15,0,5.66,LY,1594738452,37.32000000000005
192,Narsaq,60.92,-46.05,283.15,87,75,3.1,GL,1594738425,10.0
193,Laas,46.62,10.7,292.04,67,40,3.6,IT,1594738622,18.890000000000043
194,Saint George,37.1,-113.58,305.37,19,1,3.1,US,1594738275,32.22000000000003
195,Ganzhou,28.82,115.43,299.06,91,100,2.35,CN,1594738622,25.910000000000025
196,Baruun-Urt,46.68,113.28,294.91,57,1,3.36,MN,1594738622,21.760000000000048
197,Mulchén,-37.72,-72.23,273.15,66,20,0.75,CL,1594738623,0.0
198,Panabá,21.28,-88.27,301.37,72,0,2.53,MX,1594738623,28.220000000000027
199,Oron,4.83,8.23,296.45,93,100,3.71,NG,1594738623,23.30000000000001
200,Umluj,25.02,37.27,305.38,43,0,2.34,SA,1594738623,32.23000000000002
201,Diplo,24.47,69.58,305.66,59,67,6.87,PK,1594738623,32.51000000000005
202,Synya,65.37,58.04,285.54,89,100,2.12,RU,1594738623,12.390000000000043
203,Basco,20.45,121.97,302.43,80,30,10.13,PH,1594738623,29.28000000000003
204,Skibbereen,51.55,-9.27,288.15,77,75,5.7,IE,1594738624,15.0
205,Sørland,67.67,12.69,287.15,82,0,4.1,NO,1594738415,14.0
206,Englehart,47.82,-79.87,294.15,73,1,0.36,CA,1594738624,21.0
207,Ahlat,38.75,42.48,296.86,43,28,1.24,TR,1594738624,23.710000000000036
208,Celestún,20.87,-90.4,300.95,62,5,2.97,MX,1594738624,27.80000000000001
209,Henties Bay,-22.12,14.28,290.37,75,0,2.68,NA,1594738415,17.220000000000027
210,Kununurra,-15.77,128.73,285.15,32,0,4.09,AU,1594738624,12.0
211,Dunda,-8.12,34.25,300.9,21,98,2.11,TZ,1594738625,27.75
212,Namatanai,-3.67,152.43,299.21,75,99,1.66,PG,1594738439,26.060000000000002
213,Vao,-22.67,167.48,295.63,91,100,6.07,NC,1594738413,22.480000000000018
214,Vangaindrano,-23.35,47.6,293.36,84,26,1.82,MG,1594738625,20.210000000000036
215,Mar del Plata,-38.0,-57.56,280.37,70,75,5.1,AR,1594738430,7.220000000000027
216,Muisne,0.6,-80.03,297.5,86,95,4.59,EC,1594738625,24.350000000000023
217,Nome,64.5,-165.41,282.59,81,20,1.4,US,1594738447,9.439999999999998
218,Presidencia Roque Sáenz Peña,-26.79,-60.44,288.21,44,0,3.16,AR,1594738625,15.060000000000002
219,Hambantota,6.12,81.12,301.15,94,40,4.6,LK,1594738307,28.0
220,Kloulklubed,7.04,134.26,301.15,78,75,4.6,PW,1594738416,28.0
221,Neyshabur,36.21,58.8,304.69,18,89,5.27,IR,1594738625,31.54000000000002
222,Egvekinot,66.32,-179.17,280.47,95,100,0.68,RU,1594738625,7.32000000000005
223,Bengkulu,-3.8,102.27,299.14,80,99,4.21,ID,1594738413,25.99000000000001
224,Emerald,-23.53,148.17,283.15,53,0,4.1,AU,1594738626,10.0
225,Channel-Port aux Basques,47.57,-59.14,290.32,87,100,2.61,CA,1594738626,17.170000000000016
226,Puerto Ayora,-0.74,-90.35,293.71,93,98,0.45,EC,1594738409,20.560000000000002
227,Salinas,36.68,-121.66,288.15,77,90,1.5,US,1594738437,15.0
228,Muromtsevo,56.37,75.24,291.84,69,66,2.43,RU,1594738626,18.689999999999998
229,Mehamn,71.04,27.85,282.15,81,75,4.6,NO,1594738424,9.0
230,Kitimat,54.05,-128.65,285.15,87,90,3.1,CA,1594738626,12.0
231,Le Port,-20.94,55.29,295.15,78,40,5.1,RE,1594738626,22.0
232,Flinders,-34.58,150.86,285.37,86,94,4.02,AU,1594738429,12.220000000000027
233,Kapuskasing,49.42,-82.43,293.15,82,75,3.1,CA,1594738626,20.0
234,Svetlopolyansk,59.42,52.36,301.72,66,71,2.88,RU,1594738626,28.57000000000005
235,Taos,36.41,-105.57,292.04,45,20,3.6,US,1594738627,18.890000000000043
236,Gravdal,68.12,13.5,291.15,59,20,3.1,NO,1594738627,18.0
237,Ţahţā,26.77,31.5,312.15,13,0,4.1,EG,1594738627,39.0
238,Edson,53.58,-116.44,287.15,50,75,4.6,CA,1594738428,14.0
239,Hithadhoo,-0.6,73.08,302.95,67,43,1.36,MV,1594738407,29.80000000000001
240,Ludvika,60.15,15.19,287.59,87,100,1.5,SE,1594738477,14.439999999999998
241,Port Moresby,-9.44,147.18,297.29,90,14,5.4,PG,1594738452,24.140000000000043
242,Kirkland Lake,48.14,-80.04,294.15,73,1,0.48,CA,1594738627,21.0
243,Pindiga,9.98,10.93,301.97,58,73,2.41,NG,1594738627,28.82000000000005
244,Leningradskiy,69.38,178.42,276.02,91,100,5.27,RU,1594738429,2.8700000000000045
245,Kapustin Yar,48.58,45.74,302.75,50,100,3.19,RU,1594738627,29.600000000000023
246,Harsīn,34.27,47.59,307.15,4,0,6.2,IR,1594738628,34.0
247,Diamantino,-14.41,-56.45,308.02,28,16,1.13,BR,1594738348,34.870000000000005
248,Kavaratti,10.57,72.64,301.45,76,100,8.09,IN,1594738628,28.30000000000001
249,Athabasca,54.72,-113.29,287.71,70,100,8.17,CA,1594738467,14.560000000000002
250,Bambous Virieux,-20.34,57.76,294.82,83,6,0.45,MU,1594738429,21.670000000000016
251,Seoul,37.57,126.98,295.15,64,90,1.25,KR,1594738405,22.0
252,Nara,34.69,135.8,296.48,77,98,4.17,JP,1594738628,23.33000000000004
253,Taganak,6.08,118.3,299.15,88,20,3.59,PH,1594738628,26.0
254,College,64.86,-147.8,285.15,93,75,2.1,US,1594738426,12.0
255,Port Macquarie,-31.43,152.92,287.15,67,54,7.7,AU,1594738268,14.0
256,Sawtell,-30.38,153.1,286.15,62,2,3.6,AU,1594738628,13.0
257,Deputatsky,69.3,139.9,282.73,92,92,1.84,RU,1594738407,9.580000000000041
258,Jumla,29.27,82.18,291.3,72,68,1.33,NP,1594738629,18.150000000000034
259,Alofi,-19.06,-169.92,295.15,73,75,5.1,NU,1594738414,22.0
260,Fairbanks,64.84,-147.72,285.15,100,90,2.1,US,1594738290,12.0
261,Tuktoyaktuk,69.45,-133.04,285.15,76,40,4.1,CA,1594738417,12.0
262,Shitanjing,39.23,106.34,298.85,38,2,4.19,CN,1594738629,25.700000000000045
263,Carutapera,-1.2,-46.02,301.93,76,13,2.94,BR,1594738386,28.78000000000003
264,Chui,-33.7,-53.46,281.56,54,0,6.25,UY,1594738112,8.410000000000025
265,Kudahuvadhoo,2.67,72.89,302.76,65,45,1.26,MV,1594738629,29.610000000000014
266,Marzuq,14.4,46.47,305.19,30,67,6.27,YE,1594738629,32.04000000000002
267,Taltal,-25.4,-70.48,290.94,50,17,1.24,CL,1594738410,17.79000000000002
268,Kruisfontein,-34.0,24.73,282.95,75,80,7.5,ZA,1594738151,9.800000000000011
269,Itarema,-2.92,-39.92,303.15,49,0,5.42,BR,1594738630,30.0
270,Kysyl-Syr,63.9,122.76,291.01,68,0,1.54,RU,1594738630,17.860000000000014
271,Adrar,20.5,-10.07,315.3,13,19,4.5,MR,1594738419,42.150000000000034
272,Northam,51.03,-4.22,289.82,81,97,4.92,GB,1594738408,16.670000000000016
273,Dingle,11.0,122.67,298.92,87,56,1.41,PH,1594738427,25.77000000000004
274,Praia,14.92,-23.51,302.15,74,75,4.1,CV,1594738438,29.0
275,Koutiala,12.39,-5.46,305.98,45,28,3.85,ML,1594738630,32.83000000000004
276,‘Āhuimanu,21.44,-157.84,296.15,100,90,5.06,US,1594738630,23.0
277,Shinshiro,34.9,137.5,297.04,91,99,1.86,JP,1594738630,23.890000000000043
278,Gēdo,9.02,37.45,288.13,100,81,0.44,ET,1594738630,14.980000000000018
279,Zhezkazgan,47.8,67.71,302.98,27,0,7.27,KZ,1594738432,29.83000000000004
280,Ryki,51.63,21.93,295.37,41,79,1.61,PL,1594738631,22.220000000000027
281,Aklavik,68.22,-135.01,284.15,93,75,2.6,CA,1594738414,11.0
282,Dukat,62.55,155.55,286.35,71,94,1.84,RU,1594738631,13.200000000000045
283,Haverfordwest,51.8,-4.97,289.82,72,100,7.2,GB,1594738631,16.670000000000016
284,Tromsø,69.65,18.96,291.15,48,20,2.1,NO,1594738334,18.0
285,Dingcheng,32.13,115.04,294.3,93,100,4.64,CN,1594738448,21.150000000000034
286,Hasaki,35.73,140.83,293.15,100,75,4.6,JP,1594738631,20.0
287,Buenos Aires,-34.61,-58.38,282.15,34,0,2.1,AR,1594738498,9.0
288,Maragogi,-9.01,-35.22,299.92,70,32,3.94,BR,1594738386,26.77000000000004
289,Toamasina,-18.17,49.38,297.15,78,20,1.0,MG,1594738632,24.0
290,Villiers,-27.03,28.6,279.91,53,0,6.45,ZA,1594738632,6.760000000000048
291,Shubarkuduk,49.14,56.49,308.23,18,0,5.02,KZ,1594738632,35.08000000000004
292,La Palma,33.85,-118.05,294.82,68,90,2.1,US,1594738632,21.670000000000016
293,Yulara,-25.24,130.99,283.15,37,0,5.1,AU,1594738430,10.0
294,San Vicente,-26.62,-54.13,286.11,55,0,2.72,AR,1594738448,12.960000000000036
295,Longkou,37.65,120.33,296.38,76,0,2.21,CN,1594738632,23.230000000000018
296,Rawson,-43.3,-65.1,278.34,65,66,3.47,AR,1594738446,5.189999999999998
297,Broome,42.25,-75.83,294.82,68,75,3.1,US,1594738411,21.670000000000016
298,Champerico,14.3,-91.92,300.15,74,20,0.46,GT,1594738451,27.0
299,Viedma,-40.81,-63.0,280.59,56,44,4.1,AR,1594738633,7.439999999999998
300,Powell River,49.85,-124.54,287.59,93,40,1.0,CA,1594738633,14.439999999999998
301,Aripuanã,-9.17,-60.63,306.53,35,0,1.46,BR,1594738633,33.379999999999995
302,Tokur,53.13,132.9,288.59,78,34,0.39,RU,1594738408,15.439999999999998
303,Marrakesh,31.63,-8.01,312.15,17,20,2.6,MA,1594738633,39.0
304,Evensk,61.95,159.23,282.08,94,93,0.78,RU,1594738290,8.930000000000007
305,Tshela,-4.98,12.93,301.11,52,68,2.32,CD,1594738633,27.960000000000036
306,San Andrés,12.58,-81.7,303.15,74,90,7.2,CO,1594738608,30.0
307,Jaciara,-15.97,-54.97,307.09,29,15,1.51,BR,1594738633,33.94
308,Bagdarin,54.43,113.6,288.9,87,30,0.68,RU,1594738633,15.75
309,Tandaltī,13.02,31.87,309.8,24,1,0.74,SD,1594738634,36.650000000000034
310,Tilichiki,60.47,166.1,282.19,100,100,2.09,RU,1594738408,9.04000000000002
311,Longhua,23.61,114.19,301.67,68,6,1.18,CN,1594738634,28.52000000000004
312,Pizarro,4.95,-77.37,300.19,79,94,1.03,CO,1594738634,27.04000000000002
313,São José da Coroa Grande,-8.9,-35.15,299.98,68,33,3.86,BR,1594738447,26.83000000000004
314,Kaniama,-7.57,24.18,305.55,19,91,1.46,CD,1594738634,32.400000000000034
315,Cabo San Lucas,22.89,-109.91,302.59,62,26,0.45,MX,1594738183,29.439999999999998
316,Nurota,40.56,65.69,311.15,13,1,1.0,UZ,1594738634,38.0
317,Yar-Sale,66.83,70.83,287.89,56,54,2.78,RU,1594738452,14.740000000000009
318,Nizhniy Tsasuchey,50.52,115.13,293.71,76,9,3.93,RU,1594738634,20.560000000000002
319,Farsund,58.09,6.8,288.71,94,100,6.55,NO,1594738635,15.560000000000002
320,Kulhudhuffushi,6.62,73.07,301.88,76,99,4.25,MV,1594738635,28.730000000000018
321,Khatanga,71.97,102.5,289.13,72,99,2.36,RU,1594738416,15.980000000000018
322,Corinth,37.94,22.96,302.59,41,42,1.79,GR,1594738635,29.439999999999998
323,Nantucket,41.28,-70.1,297.15,83,75,2.1,US,1594738635,24.0
324,Gushikawa,26.35,127.87,301.15,88,40,5.1,JP,1594738416,28.0
325,Broken Hill,-31.95,141.43,279.15,81,8,2.34,AU,1594738421,6.0
326,Asău,46.43,26.4,295.37,43,20,5.1,RO,1594738449,22.220000000000027
327,Bilibino,68.05,166.44,282.53,68,99,1.95,RU,1594738288,9.379999999999995
328,Grindavik,63.84,-22.43,286.15,82,90,4.6,IS,1594738431,13.0
329,Klaksvík,62.23,-6.59,285.15,87,94,3.6,FO,1594738422,12.0
330,Olafsvik,64.89,-23.71,284.75,81,99,2.96,IS,1594738423,11.600000000000023
331,Kondopoga,62.21,34.26,292.15,48,22,5.0,RU,1594738636,19.0
332,Gemeente Berg en Dal,51.77,5.92,290.37,87,90,2.1,NL,1594738636,17.220000000000027
333,Okhotsk,59.38,143.3,287.74,81,77,3.44,RU,1594738452,14.590000000000032
334,Riviera Beach,26.78,-80.06,305.37,70,40,4.1,US,1594738452,32.22000000000003
335,Cockburn Town,21.46,-71.14,304.15,66,40,6.2,TC,1594738411,31.0
336,Hailey,43.52,-114.32,285.37,43,5,3.6,US,1594738455,12.220000000000027
337,Port-Gentil,-0.72,8.78,299.15,78,90,6.37,GA,1594738636,26.0
338,Tuy Hoa,13.08,109.3,299.68,88,14,2.97,VN,1594738636,26.53000000000003
339,Portland,45.52,-122.68,289.26,82,1,1.5,US,1594738210,16.110000000000014
340,Wooster,40.81,-81.94,297.59,53,1,1.47,US,1594738385,24.439999999999998
341,Roebourne,-20.78,117.13,291.59,83,15,0.54,AU,1594738636,18.439999999999998
342,Fortuna,40.6,-124.16,285.93,91,0,1.43,US,1594738414,12.78000000000003
343,Vanavara,60.34,102.28,292.62,72,100,2.43,RU,1594738443,19.470000000000027
344,Hervey Bay,-25.3,152.85,284.82,62,0,1.34,AU,1594738448,11.670000000000016
345,Boueni,-12.9,45.08,299.15,69,75,4.1,YT,1594738637,26.0
346,Zonguldak,41.25,31.83,296.15,60,75,4.1,TR,1594738354,23.0
347,Sarakhs,36.54,61.16,314.15,13,0,5.52,IR,1594738637,41.0
348,Plaeng Yao,13.58,101.28,304.26,99,63,1.41,TH,1594738637,31.110000000000014
349,San Cristobal,7.77,-72.22,304.15,40,40,5.7,VE,1594738428,31.0
350,Saint-Louis,16.33,-15.0,310.34,26,33,7.25,SN,1594738637,37.19
351,São Filipe,14.9,-24.5,299.04,84,86,2.7,CV,1594738637,25.890000000000043
352,Praia da Vitória,38.73,-27.07,297.15,73,20,4.3,PT,1594738637,24.0
353,Markova,48.68,24.41,292.15,59,75,3.0,UA,1594738638,19.0
354,Bonavista,48.65,-53.11,287.04,79,98,1.79,CA,1594738412,13.890000000000043
355,Smithers,54.78,-127.17,283.15,81,75,1.0,CA,1594738638,10.0
356,Xai-Xai,-25.05,33.64,292.66,71,0,3.41,MZ,1594738638,19.510000000000048
357,Buchanan,5.88,-10.05,301.15,74,75,4.1,LR,1594738638,28.0
358,Nianzishan,47.52,122.88,296.03,53,48,1.9,CN,1594738638,22.879999999999995
359,Karratha,-20.74,116.85,291.56,83,6,0.79,AU,1594738413,18.410000000000025
360,Kaeo,-35.1,173.78,284.82,3,100,4.32,NZ,1594738638,11.670000000000016
361,Piaçabuçu,-10.41,-36.43,300.3,67,16,2.92,BR,1594738444,27.150000000000034
362,Vakhtan,57.97,46.69,302.74,67,0,2.95,RU,1594738638,29.590000000000032
363,Thompson,55.74,-97.86,288.15,93,90,3.6,CA,1594738424,15.0
364,St. George's,12.06,-61.75,304.15,70,20,9.3,GD,1594738638,31.0
365,Bainbridge Island,47.63,-122.52,288.71,77,1,1.22,US,1594738639,15.560000000000002
366,Bow Island,49.87,-111.37,285.93,76,20,3.6,CA,1594738639,12.78000000000003
367,Puerto del Rosario,28.5,-13.86,302.15,54,20,9.3,ES,1594738639,29.0
368,Smithfield,41.92,-71.55,299.82,69,75,5.1,US,1594738639,26.670000000000016
369,Noril'sk,69.35,88.2,283.15,93,75,3.0,RU,1594738639,10.0
370,Serdobsk,52.46,44.22,295.23,82,95,4.37,RU,1594738639,22.08000000000004
371,Zhob,31.34,69.45,305.23,26,11,8.51,PK,1594738639,32.08000000000004
372,Saint-François,46.42,3.91,301.15,26,70,2.6,FR,1594738639,28.0
373,Oistins,13.07,-59.53,304.15,66,40,5.7,BB,1594738418,31.0
374,Lumphat,13.49,106.98,298.82,86,100,0.55,KH,1594738640,25.670000000000016
375,Meulaboh,4.14,96.13,300.13,77,62,0.44,ID,1594738450,26.980000000000018
376,Saint-Pierre,-21.34,55.48,296.15,73,1,1.5,RE,1594738640,23.0
377,Matara,5.95,80.54,300.38,86,98,3.17,LK,1594738640,27.230000000000018
378,Walvis Bay,-22.96,14.51,296.15,38,0,5.1,NA,1594738429,23.0
379,Talara,-4.58,-81.27,292.15,82,13,5.7,PE,1594738640,19.0
380,Taicheng,38.73,113.23,291.49,84,41,0.89,CN,1594738640,18.340000000000032
381,Lom Sak,16.78,101.24,298.2,87,9,0.56,TH,1594738640,25.05000000000001
382,Wahiawā,21.5,-158.02,296.15,94,90,1.5,US,1594738640,23.0
383,Oussouye,12.48,-16.55,304.15,74,40,1.0,SN,1594738640,31.0
384,Batemans Bay,-35.72,150.18,281.48,89,71,0.89,AU,1594738641,8.330000000000041
385,Hvide Sande,56.0,8.13,291.48,79,34,0.45,DK,1594738641,18.33000000000004
386,Grand Forks,47.93,-97.03,290.93,77,75,3.6,US,1594738641,17.78000000000003
387,Bayan,46.08,127.4,299.82,57,1,1.27,CN,1594738641,26.670000000000016
388,Krivyanskaya,47.4,40.17,298.71,61,20,8.0,RU,1594738641,25.560000000000002
389,Christchurch,-43.53,172.63,274.26,85,46,2.6,NZ,1594738495,1.1100000000000136
390,Taylorville,39.55,-89.29,298.71,65,1,3.1,US,1594738641,25.560000000000002
391,Durrës,41.32,19.44,300.15,42,49,6.7,AL,1594738641,27.0
392,Atherton,53.52,-2.49,288.71,71,100,3.58,GB,1594738498,15.560000000000002
393,Pierre,44.37,-100.35,288.15,93,90,2.1,US,1594738641,15.0
394,Malanje,-9.54,16.34,303.15,45,75,1.5,AO,1594738447,30.0
395,Odesa,46.48,30.73,298.15,23,55,7.0,UA,1594738628,25.0
396,Wajir,1.75,40.06,303.07,44,75,7.64,KE,1594738641,29.920000000000016
397,Mossamedes,-15.2,12.15,295.25,64,0,4.28,AO,1594738419,22.100000000000023
398,Kidal,18.44,1.41,312.42,23,4,6.08,ML,1594738642,39.27000000000004
399,Kavieng,-2.57,150.8,300.84,72,100,3.07,PG,1594738422,27.689999999999998
400,Paamiut,61.99,-49.67,277.99,92,45,7.04,GL,1594738409,4.840000000000032
401,Tuatapere,-46.13,167.68,277.04,83,72,1.34,NZ,1594738204,3.890000000000043
402,Manokwari,-0.87,134.08,299.44,76,74,2.96,ID,1594738642,26.29000000000002
403,Bowen,-20.02,148.23,284.82,87,26,0.5,AU,1594738642,11.670000000000016
404,Iralaya,15.0,-83.23,303.15,79,40,3.6,HN,1594738642,30.0
405,Tigil',57.8,158.67,282.82,89,60,1.5,RU,1594738642,9.670000000000016
406,Angostura,25.37,-108.18,303.71,74,0,1.79,MX,1594738642,30.560000000000002
407,Padang,-0.95,100.35,299.88,71,100,1.96,ID,1594738643,26.730000000000018
408,Camrose,53.02,-112.84,289.82,53,71,9.5,CA,1594738643,16.670000000000016
409,Ankara,39.92,32.85,303.15,30,40,1.5,TR,1594738562,30.0
410,Kīhei,20.79,-156.47,297.15,83,90,3.6,US,1594738643,24.0
411,Båtsfjord,70.63,29.72,282.15,81,75,4.6,NO,1594738643,9.0
412,Roberval,48.52,-72.23,291.15,77,40,3.6,CA,1594738591,18.0
413,Mumford,5.26,-0.76,298.21,78,75,8.07,GH,1594738643,25.060000000000002
414,Eureka,40.8,-124.16,285.93,100,0,1.12,US,1594738399,12.78000000000003
415,Plettenberg Bay,-34.05,23.37,284.84,67,20,5.91,ZA,1594738439,11.689999999999998
416,Vila Velha,-20.33,-40.29,303.15,48,0,2.6,BR,1594738350,30.0
417,Puerto El Triunfo,13.28,-88.55,304.15,100,1,1.0,SV,1594738643,31.0
418,Dankov,53.25,39.16,296.15,73,40,8.0,RU,1594738643,23.0
419,Nortelândia,-14.45,-56.8,308.18,27,20,1.35,BR,1594738643,35.03000000000003
420,Kaliua,-5.06,31.79,302.54,25,42,2.67,TZ,1594738644,29.390000000000043
421,Geelong,-38.15,144.36,280.93,100,0,2.6,AU,1594738644,7.78000000000003
422,Yumen,40.28,97.2,301.65,24,100,9.07,CN,1594738445,28.5
423,Nizhnyaya Tavda,57.67,66.17,298.29,71,16,2.27,RU,1594738644,25.140000000000043
424,Nzega,-2.48,29.56,293.44,49,82,1.66,RW,1594738644,20.29000000000002
425,Tak Bai,6.26,102.05,301.15,83,20,2.08,TH,1594738644,28.0
426,Kiryat Gat,31.61,34.76,304.26,60,0,0.89,IL,1594738450,31.110000000000014
427,San Quintín,30.48,-115.95,293.96,79,25,4.45,MX,1594738435,20.810000000000002
428,Ishigaki,24.34,124.16,303.1,80,100,9.25,JP,1594738644,29.950000000000045
429,Natal,-5.79,-35.21,302.15,58,20,5.1,BR,1594738380,29.0
430,Honāvar,14.28,74.45,298.17,91,100,2.57,IN,1594738644,25.02000000000004
431,Bridgend,51.51,-3.58,290.37,67,75,7.2,GB,1594738380,17.220000000000027
432,Gwanda,-20.93,29.0,295.58,18,0,3.06,ZW,1594738436,22.430000000000007
433,Tarauacá,-8.16,-70.77,304.02,56,1,0.87,BR,1594738645,30.870000000000005
434,Chepareria,1.31,35.2,292.99,79,80,0.2,KE,1594738645,19.840000000000032
435,Gamba,-2.65,10.0,295.22,86,100,3.34,GA,1594738447,22.07000000000005
436,Zhetysay,40.73,68.3,304.56,25,0,2.13,KZ,1594738645,31.410000000000025
437,Dzilam González,21.28,-88.93,302.12,64,6,2.25,MX,1594738441,28.970000000000027
438,Mango,27.98,-82.31,303.71,74,1,2.61,US,1594738645,30.560000000000002
439,Sayyan,15.17,44.32,297.9,24,75,3.86,YE,1594738426,24.75
440,Gawler,-34.6,138.73,282.59,87,0,2.68,AU,1594738645,9.439999999999998
441,Letterkenny,54.95,-7.73,287.15,93,75,7.2,IE,1594738645,14.0
442,Ribeira Grande,38.52,-28.7,296.15,69,20,5.1,PT,1594738424,23.0
443,Kyzyl-Suu,42.34,78.0,289.46,45,57,1.35,KG,1594738645,16.310000000000002
444,Atlantic Beach,30.33,-81.4,307.04,79,40,2.1,US,1594738646,33.89000000000004
445,Oriximiná,-1.77,-55.87,304.38,54,67,2.02,BR,1594738646,31.230000000000018
446,Tapes,-30.67,-51.4,282.44,51,0,5.2,BR,1594738646,9.29000000000002
447,Maceió,-9.67,-35.74,300.15,69,75,4.6,BR,1594738646,27.0
448,Predivinsk,57.07,93.44,291.69,82,1,2.36,RU,1594738646,18.54000000000002
449,Loncoche,-39.37,-72.63,277.59,100,90,1.0,CL,1594738646,4.439999999999998
450,Shimokizukuri,40.81,140.39,291.48,84,100,4.02,JP,1594738646,18.33000000000004
451,Novy Urengoy,66.08,76.63,285.51,62,98,4.99,RU,1594738646,12.360000000000014
452,Naze,28.37,129.48,301.15,94,100,3.6,JP,1594738277,28.0
453,Ayan,56.45,138.17,288.9,74,86,4.63,RU,1594738647,15.75
454,Puerto Escondido,15.85,-97.07,300.15,78,75,3.6,MX,1594738426,27.0
455,Brae,60.4,-1.35,286.15,87,75,6.2,GB,1594738420,13.0
456,Distrikt Brokopondo,4.75,-55.17,300.21,78,23,0.16,SR,1594738647,27.060000000000002
457,Morón,-34.65,-58.62,284.26,52,0,2.1,AR,1594738291,11.110000000000014
458,Udachny,66.42,112.4,294.15,46,7,2.0,RU,1594738647,21.0
459,Marsá Maţrūḩ,31.35,27.25,301.15,61,0,5.1,EG,1594738446,28.0
460,Nova Olímpia,-14.8,-57.29,307.75,29,0,1.74,BR,1594738384,34.60000000000002
461,Waddān,29.16,16.14,309.46,16,0,5.14,LY,1594738442,36.31
462,Lorengau,-2.02,147.27,301.17,71,100,2.67,PG,1594738647,28.02000000000004
463,Riyadh,24.69,46.72,316.15,16,4,1.0,SA,1594738622,43.0
464,Airai,-8.93,125.41,285.83,91,1,1.66,TL,1594738407,12.680000000000007
465,Araranguá,-28.93,-49.49,286.18,51,0,2.68,BR,1594738647,13.03000000000003
466,Akriní,40.43,21.9,297.59,41,72,3.1,GR,1594738648,24.439999999999998
467,Wagar,16.15,36.2,311.8,21,2,2.77,SD,1594738648,38.650000000000034
468,Al Bardīyah,31.76,25.09,300.59,53,0,6.44,LY,1594738648,27.439999999999998
469,Muşeteşti,45.15,23.47,293.74,50,27,1.29,RO,1594738648,20.590000000000032
470,Manggar,-2.88,108.27,299.1,86,100,4.96,ID,1594738648,25.950000000000045
471,Lingao,19.91,109.69,301.89,76,3,1.49,CN,1594738432,28.74000000000001
472,Ilulissat,69.22,-51.1,279.15,81,75,2.1,GL,1594738419,6.0
473,Nishihara,26.18,127.76,302.15,88,40,4.1,JP,1594738427,29.0
474,Saint-Joseph,-21.37,55.62,296.15,73,6,1.5,RE,1594738271,23.0
475,Mitsamiouli,-11.38,43.28,301.15,58,20,5.7,KM,1594738422,28.0
476,Marystown,47.17,-55.15,294.38,77,78,1.15,CA,1594738648,21.230000000000018
477,Vikhorevka,56.12,101.16,296.15,64,97,3.0,RU,1594738648,23.0
478,Yeppoon,-23.13,150.73,286.15,50,0,4.6,AU,1594738649,13.0
479,Ossora,59.24,163.07,284.34,93,100,2.38,RU,1594738649,11.189999999999998
480,Kismayo,-0.36,42.55,299.29,77,67,7.58,SO,1594738649,26.140000000000043
481,Ponta do Sol,32.67,-17.1,300.15,47,20,8.2,PT,1594738409,27.0
482,Ariquemes,-9.91,-63.04,306.43,43,0,1.32,BR,1594738649,33.28000000000003
483,High Rock,26.62,-78.28,301.15,88,75,4.6,BS,1594738649,28.0
484,Hemnesberget,66.23,13.63,299.15,48,40,2.1,NO,1594738650,26.0
485,Goderich,43.75,-81.72,296.48,75,0,0.65,CA,1594738650,23.33000000000004
486,Taoudenni,22.68,-3.98,319.33,5,0,3.83,ML,1594738650,46.18000000000001
487,Ballina,-28.87,153.57,285.15,66,0,4.6,AU,1594738650,12.0
488,Arlit,18.74,7.39,311.36,21,57,1.69,NE,1594738414,38.210000000000036
489,São Gabriel da Cachoeira,-0.13,-67.09,304.0,57,2,1.6,BR,1594738650,30.850000000000023
490,Venice,27.1,-82.45,305.15,66,20,3.1,US,1594738469,32.0
491,Muzhi,65.37,64.67,291.61,59,100,1.91,RU,1594738650,18.460000000000036
492,Berlevåg,70.86,29.09,282.15,81,75,4.6,NO,1594738650,9.0
493,Gimli,50.63,-96.99,291.48,99,3,2.68,CA,1594738651,18.33000000000004
494,Poddor'ye,57.47,31.12,293.11,48,100,3.03,RU,1594738651,19.960000000000036
495,Benalla,-36.55,145.98,277.15,100,0,1.5,AU,1594738651,4.0
496,Independence,39.09,-94.42,298.15,73,40,4.6,US,1594738407,25.0
497,Chernyshevskiy,63.01,112.47,288.88,72,31,0.66,RU,1594738651,15.730000000000018
498,Chacabuco,-34.64,-60.47,282.59,43,0,1.79,AR,1594738651,9.439999999999998
499,Orem,40.3,-111.69,296.48,43,40,3.1,US,1594738651,23.33000000000004
500,Antofagasta,-23.65,-70.4,284.15,87,40,1.5,CL,1594738425,11.0
501,Port Hawkesbury,45.62,-61.35,297.04,93,90,5.1,CA,1594738652,23.890000000000043
502,Izhma,65.01,53.91,284.68,95,100,3.26,RU,1594738652,11.53000000000003
503,Kieta,-6.22,155.63,298.68,77,98,1.25,PG,1594738652,25.53000000000003
504,Miranda,3.25,-76.23,296.15,83,75,1.5,CO,1594738580,23.0
505,Kutum,14.2,24.67,306.19,20,7,5.11,SD,1594738424,33.04000000000002
506,Port Lincoln,-34.73,135.87,284.85,70,0,5.36,AU,1594738440,11.700000000000045
507,Amarante do Maranhão,-5.57,-46.74,304.14,44,78,3.07,BR,1594738652,30.99000000000001
508,Daru,-9.08,143.21,298.25,89,82,7.86,PG,1594738652,25.100000000000023
509,Lukovetskiy,64.3,41.92,288.15,87,90,2.0,RU,1594738652,15.0
510,Lata,40.16,-8.33,304.82,47,0,5.51,PT,1594738652,31.670000000000016
511,Astoria,46.19,-123.83,286.48,93,90,1.5,US,1594738653,13.330000000000041
512,St. Pete Beach,27.73,-82.74,304.26,78,75,2.1,US,1594738449,31.110000000000014
513,Sovkhoznyy,45.29,38.11,298.15,50,40,5.0,RU,1594738653,25.0
514,Molėtai,55.23,25.42,292.15,48,40,4.1,LT,1594738653,19.0
515,Sakaraha,-22.9,44.53,294.46,35,0,1.69,MG,1594738653,21.310000000000002
516,Damaturu,11.75,11.96,301.12,62,100,8.06,NG,1594738653,27.970000000000027
517,Khandyga,62.67,135.6,291.68,58,0,2.54,RU,1594738653,18.53000000000003
518,Kāvali,14.92,79.98,302.39,68,100,2.98,IN,1594738653,29.24000000000001
519,Chu,43.6,73.76,300.79,19,95,5.96,KZ,1594738653,27.640000000000043
520,Kiama,-34.68,150.87,285.37,92,90,3.58,AU,1594738653,12.220000000000027
521,Shingū,33.73,135.98,294.63,90,90,2.81,JP,1594738654,21.480000000000018
522,Senanga,-16.12,23.27,301.22,13,0,3.78,ZM,1594738413,28.07000000000005
523,Gazojak,41.19,61.4,311.01,9,0,4.04,TM,1594738654,37.860000000000014
524,Mezen',65.85,44.24,284.8,96,100,3.87,RU,1594738654,11.650000000000034
525,Severo-Yeniseyskiy,60.37,93.04,285.36,91,9,4.13,RU,1594738654,12.210000000000036
526,Billings Metropolitan Area,45.78,-108.5,290.93,51,20,2.6,US,1594738654,17.78000000000003
527,Batagay-Alyta,67.8,130.41,283.58,88,6,1.55,RU,1594738654,10.430000000000007
528,Baykit,61.67,96.37,289.43,78,39,2.76,RU,1594738655,16.28000000000003
529,Cacoal,-11.44,-61.45,305.99,41,0,2.09,BR,1594738655,32.84000000000003
530,Pevek,69.7,170.31,275.74,86,0,2.98,RU,1594738425,2.590000000000032
531,Westport,41.14,-73.36,299.82,57,1,5.7,US,1594738436,26.670000000000016
532,Manthani,18.65,79.67,300.98,83,100,2.53,IN,1594738655,27.83000000000004
533,Kampot,10.62,104.18,301.15,78,20,2.6,KH,1594738655,28.0
534,Sabzawār,36.21,57.68,306.15,26,75,11.3,IR,1594738655,33.0
535,Ruteng,-8.61,120.47,289.58,100,40,1.13,ID,1594738655,16.430000000000007
536,Sinnamary,5.38,-52.95,302.46,66,83,2.23,GF,1594738427,29.310000000000002
537,Mogadishu,2.04,45.34,299.08,81,45,7.92,SO,1594738434,25.930000000000007
538,Ibotirama,-12.19,-43.22,307.79,29,95,0.91,BR,1594738655,34.64000000000004
539,Coyhaique,-45.58,-72.07,272.15,86,40,1.05,CL,1594738435,-1.0
540,Chongwe,-15.33,28.68,297.34,21,0,3.92,ZM,1594738656,24.189999999999998
541,Kwinana,-32.25,115.77,285.37,100,90,3.1,AU,1594738656,12.220000000000027
542,Beloha,-25.17,45.05,292.9,65,0,4.35,MG,1594738656,19.75
543,Uyuni,-20.46,-66.83,281.59,35,0,2.74,BO,1594738656,8.439999999999998
544,Hernani,43.27,-1.98,295.37,63,41,1.79,ES,1594738656,22.220000000000027
545,Ostrovnoy,68.05,39.51,283.64,71,0,3.56,RU,1594738656,10.490000000000009
546,Payakumbuh,-0.22,100.63,294.01,90,92,0.79,ID,1594738656,20.860000000000014
547,Agadez,19.75,10.25,314.02,7,0,4.39,NE,1594738427,40.870000000000005
548,Bubaque,11.28,-15.83,300.19,82,100,5.96,GW,1594738657,27.04000000000002
549,La Asuncion,11.03,-63.86,302.15,83,58,5.7,VE,1594738657,29.0
550,Ahipara,-35.17,173.17,287.05,86,100,4.6,NZ,1594738447,13.900000000000034
551,Belmonte,-15.86,-38.88,299.15,69,40,1.0,BR,1594738447,26.0
552,Mana,5.66,-53.78,301.9,70,57,2.39,GF,1594738657,28.75
553,Prince Rupert,54.32,-130.32,285.15,93,90,4.6,CA,1594738439,12.0
554,Río Gallegos,-51.62,-69.22,274.15,91,40,2.1,AR,1594738657,1.0
555,Gaya,24.78,85.0,304.4,65,100,3.42,IN,1594738657,31.25
556,Sept-Îles,50.2,-66.38,291.15,48,20,3.6,CA,1594738447,18.0
557,Tashtyp,52.79,89.9,289.86,88,92,1.38,RU,1594738657,16.710000000000036
558,Karema,-6.82,30.44,298.97,50,20,3.12,TZ,1594738658,25.82000000000005
559,Pitimbu,-7.47,-34.81,301.15,65,40,5.1,BR,1594738658,28.0
560,Severo-Kuril'sk,50.68,156.12,283.68,92,96,3.64,RU,1594738423,10.53000000000003
561,Rabo de Peixe,37.8,-25.58,298.15,61,20,3.1,PT,1594738658,25.0
562,Saint Anthony,45.02,-93.22,296.48,88,75,4.34,US,1594738658,23.33000000000004
563,Antibes,43.56,7.13,300.15,47,75,1.5,FR,1594738658,27.0
564,Dunedin,-45.87,170.5,280.37,86,25,0.45,NZ,1594738659,7.220000000000027
